{
  "type": "FeatureCollection",
  "features": [
    {
      "type": "Feature",
      "geometry": {
        "type": "Point",
        "coordinates": [
          -123.105347,
          49.263779
        ]
      },
      "properties": {
        "Name": "33 Acres Brewing Company",
        "City": "Vancouver",
        "Province": "BC",
        "URL": "http://www.33acresbrewing.com/",
        "Facebook": "https://www.facebook.com/33AcresBrewing",
        "Twitter": "https://twitter.com/33Acres",
        "Type": "Brewery",
        "marker-color": "#f00"
      }
    },
    {
      "type": "Feature",
      "geometry": {
        "type": "Point",
        "coordinates": [
          -113.487991,
          53.495293
        ]
      },
      "properties": {
        "Name": "Alley Kat Brewing Company",
        "City": "Edmonton",
        "Province": "AB",
        "URL": "http://www.alleykatbeer.com/",
        "Facebook": "https://www.facebook.com/groups/2376909468/",
        "Twitter": "https://twitter.com/alley_kat_beer",
        "Type": "Brewery",
        "marker-color": "#f00"
      }
    },
    {
      "type": "Feature",
      "geometry": {
        "type": "Point",
        "coordinates": [
          -113.487572,
          53.514278
        ]
      },
      "properties": {
        "Name": "Amber's Brewing Company",
        "City": "Edmonton",
        "Province": "AB",
        "URL": "http://www.ambersbrewing.com/",
        "Facebook": "https://www.facebook.com/ambersbrewing",
        "Twitter": "https://twitter.com/ambersbrewing",
        "Type": "Brewery",
        "marker-color": "#f00"
      }
    },
    {
      "type": "Feature",
      "geometry": {
        "type": "Point",
        "coordinates": [
          -116.028328,
          50.504578
        ]
      },
      "properties": {
        "Name": "Arrowhead Brewing Company",
        "City": "Invermere",
        "Province": "BC",
        "URL": "http://arrowheadbrewingcompany.ca/",
        "Facebook": "https://www.facebook.com/pages/Arrowhead-Brewing-Company/364956420200389",
        "Type": "Brewery",
        "marker-color": "#f00"
      }
    },
    {
      "type": "Feature",
      "geometry": {
        "type": "Point",
        "coordinates": [
          -115.570793,
          51.175091
        ]
      },
      "properties": {
        "Name": "Banff Ave. Brewing Co.",
        "City": "Banff",
        "Province": "AB",
        "URL": "http://www.banffavebrewingco.ca/",
        "Facebook": "https://www.facebook.com/banffavebrewing",
        "Twitter": "https://twitter.com/banffavebrewing",
        "Type": "Brewpub",
        "marker-color": "#00f"
      }
    },
    {
      "type": "Feature",
      "geometry": {
        "type": "Point",
        "coordinates": [
          -119.583885,
          49.469715
        ]
      },
      "properties": {
        "Name": "Barley Mill Brewpub",
        "City": "Penticton",
        "Province": "BC",
        "URL": "http://www.barleymillpub.com/",
        "Type": "Brewpub",
        "marker-color": "#00f"
      }
    },
    {
      "type": "Feature",
      "geometry": {
        "type": "Point",
        "coordinates": [
          -104.669731,
          50.4949
        ]
      },
      "properties": {
        "Name": "Barley Mill Brew Pub",
        "City": "Regina",
        "Province": "SK",
        "URL": "http://barleymill.ca/",
        "Type": "Brewpub",
        "marker-color": "#00f"
      }
    },
    {
      "type": "Feature",
      "geometry": {
        "type": "Point",
        "coordinates": [
          -119.28511,
          50.699665
        ]
      },
      "properties": {
        "Name": "Barley Station Brewpub",
        "AKA": "Shuswap Lake Brewing Co.",
        "City": "Salmon Arm",
        "Province": "BC",
        "URL": "http://www.barleystation.com/",
        "Type": "Brewpub",
        "marker-color": "#00f"
      }
    },
    {
      "type": "Feature",
      "geometry": {
        "type": "Point",
        "coordinates": [
          -114.081535,
          51.041794
        ]
      },
      "properties": {
        "Name": "Beer Revolution",
        "City": "Calgary",
        "Province": "AB",
        "URL": "http://beerrevolution.ca/",
        "Facebook": "https://www.facebook.com/RevolutionYYC",
        "Twitter": "https://twitter.com/RevolutionYYC",
        "Note": "Owned by Brewsters brewpub chain, beer presumably produced offsite. Will be removed once confirmed.",
        "Type": "Brewpub Chain",
        "marker-color": "#00bb00"
      }
    },
    {
      "type": "Feature",
      "geometry": {
        "type": "Point",
        "coordinates": [
          -113.5235,
          53.5463
        ]
      },
      "properties": {
        "Name": "Beer Revolution",
        "City": "Edmonton",
        "Province": "AB",
        "URL": "http://beerrevolution.ca/",
        "Facebook": "https://www.facebook.com/RevolutionYEG",
        "Twitter": "https://twitter.com/RevolutionYEG",
        "Note": "Owned by Brewsters brewpub chain, beer presumably produced offsite. Will be removed once confirmed.",
        "Type": "Brewpub Chain",
        "marker-color": "#00bb00"
      }
    },
    {
      "type": "Feature",
      "geometry": {
        "type": "Point",
        "coordinates": [
          -122.800621,
          49.103989
        ]
      },
      "properties": {
        "Name": "Big Ridge Brewing Co.",
        "City": "Surrey",
        "Province": "BC",
        "URL": "http://www.markjamesgroup.com/bigridge.html",
        "Facebook": "https://www.facebook.com/pages/Big-Ridge-Brewing-Co/32725243372",
        "Twitter": "https://twitter.com/BigRidgeBrewing",
        "Type": "Brewpub",
        "marker-color": "#00f"
      }
    },
    {
      "type": "Feature",
      "geometry": {
        "type": "Point",
        "coordinates": [
          -123.065079,
          49.134468
        ]
      },
      "properties": {
        "Name": "Big River Brewpub & Restaurant",
        "City": "Richmond",
        "Province": "BC",
        "URL": "http://www.zbowl.com/Richmond_BR/BrewStory.html",
        "Facebook": "https://www.facebook.com/BigRiverCanada",
        "Twitter": "https://twitter.com/BigRiver_BC",
        "Type": "Brewpub",
        "marker-color": "#00f"
      }
    },
    {
      "type": "Feature",
      "geometry": {
        "type": "Point",
        "coordinates": [
          -113.955734,
          50.984371
        ]
      },
      "properties": {
        "Name": "Big Rock Brewery",
        "City": "Calgary",
        "Province": "AB",
        "URL": "http://www.bigrockbeer.com/",
        "Facebook": "https://www.facebook.com/BigRockBrewery",
        "Twitter": "https://twitter.com/bigrockbrewery",
        "Type": "Brewery",
        "marker-color": "#f00"
      }
    },
    {
      "type": "Feature",
      "geometry": {
        "type": "Point",
        "coordinates": [
          -119.388885,
          50.007931
        ]
      },
      "properties": {
        "Name": "Big Surf Beer Company",
        "AKA": "Prohibition Brewing Co.",
        "City": "Kelowna",
        "Province": "BC",
        "URL": "http://bigsurfbeer.com/",
        "Facebook": "http://bigsurfbeer.com/",
        "Type": "Brewery",
        "marker-color": "#f00"
      }
    },
    {
      "type": "Feature",
      "geometry": {
        "type": "Point",
        "coordinates": [
          -104.61956,
          50.404839
        ]
      },
      "properties": {
        "Name": "Bonzzini's Brew Pub",
        "City": "Regina",
        "Province": "SK",
        "Facebook": "https://www.facebook.com/BonzzinisBrewPub?rf=129459827088391",
        "Type": "Brewpub",
        "marker-color": "#00f"
      }
    },
    {
      "type": "Feature",
      "geometry": {
        "type": "Point",
        "coordinates": [
          -114.0746,
          51.042652
        ]
      },
      "properties": {
        "Name": "Brew Brothers Brewery",
        "City": "Calgary",
        "Province": "AB",
        "URL": "http://www.brewbrothers.com/",
        "Twitter": "https://twitter.com/brewbrosbrewery",
        "Type": "Nanobrewery",
        "marker-color": "#ffaa00"
      }
    },
    {
      "type": "Feature",
      "geometry": {
        "type": "Point",
        "coordinates": [
          -122.953865,
          50.117653
        ]
      },
      "properties": {
        "Name": "Brewhouse High Mountain Brewing Co.",
        "City": "Whistler",
        "Province": "BC",
        "URL": "http://www.markjamesgroup.com/brewhouse.html",
        "Facebook": "https://www.facebook.com/pages/The-Brewhouse-Whistler/114909291864527",
        "Twitter": "https://twitter.com/BREWHOUSEatWHIS",
        "Type": "Brewpub",
        "marker-color": "#00f"
      }
    },
    {
      "type": "Feature",
      "geometry": {
        "type": "Point",
        "coordinates": [
          -113.474457,
          53.423157
        ]
      },
      "properties": {
        "Name": "Brewsters Brewing Co. & Restaurant",
        "City": "Edmonton",
        "Province": "AB",
        "URL": "http://brewsters.ca/",
        "Facebook": "http://brewsters.ca/",
        "Twitter": "https://twitter.com/BrewstersPub",
        "Type": "Brewpub Chain",
        "marker-color": "#00bb00"
      }
    },
    {
      "type": "Feature",
      "geometry": {
        "type": "Point",
        "coordinates": [
          -113.52169,
          53.547131
        ]
      },
      "properties": {
        "Name": "Brewsters Brewing Co. & Restaurant",
        "City": "Edmonton",
        "Province": "AB",
        "URL": "http://brewsters.ca/",
        "Facebook": "http://brewsters.ca/",
        "Twitter": "https://twitter.com/BrewstersPub",
        "Type": "Brewpub Chain",
        "marker-color": "#00bb00"
      }
    },
    {
      "type": "Feature",
      "geometry": {
        "type": "Point",
        "coordinates": [
          -113.594788,
          53.519539
        ]
      },
      "properties": {
        "Name": "Brewsters Brewing Co. & Restaurant",
        "City": "Edmonton",
        "Province": "AB",
        "URL": "http://brewsters.ca/",
        "Facebook": "http://brewsters.ca/",
        "Twitter": "https://twitter.com/BrewstersPub",
        "Type": "Brewpub Chain",
        "marker-color": "#00bb00"
      }
    },
    {
      "type": "Feature",
      "geometry": {
        "type": "Point",
        "coordinates": [
          -113.515381,
          53.454594
        ]
      },
      "properties": {
        "Name": "Brewsters Brewing Co. & Restaurant",
        "City": "Edmonton",
        "Province": "AB",
        "URL": "http://brewsters.ca/",
        "Facebook": "http://brewsters.ca/",
        "Twitter": "https://twitter.com/BrewstersPub",
        "Type": "Brewpub Chain",
        "marker-color": "#00bb00"
      }
    },
    {
      "type": "Feature",
      "geometry": {
        "type": "Point",
        "coordinates": [
          -113.516296,
          53.614571
        ]
      },
      "properties": {
        "Name": "Brewsters Brewing Co. & Restaurant",
        "City": "Edmonton",
        "Province": "AB",
        "URL": "http://brewsters.ca/",
        "Facebook": "http://brewsters.ca/",
        "Twitter": "https://twitter.com/BrewstersPub",
        "Type": "Brewpub Chain",
        "marker-color": "#00bb00"
      }
    },
    {
      "type": "Feature",
      "geometry": {
        "type": "Point",
        "coordinates": [
          -113.961479,
          50.916874
        ]
      },
      "properties": {
        "Name": "Brewsters Brewing Co. & Restaurant",
        "City": "Calgary",
        "Province": "AB",
        "URL": "http://brewsters.ca/",
        "Facebook": "http://brewsters.ca/",
        "Twitter": "https://twitter.com/BrewstersPub",
        "Type": "Brewpub Chain",
        "marker-color": "#00bb00"
      }
    },
    {
      "type": "Feature",
      "geometry": {
        "type": "Point",
        "coordinates": [
          -114.047188,
          50.942516
        ]
      },
      "properties": {
        "Name": "Brewsters Brewing Co. & Restaurant",
        "City": "Calgary",
        "Province": "AB",
        "URL": "http://brewsters.ca/",
        "Facebook": "http://brewsters.ca/",
        "Twitter": "https://twitter.com/BrewstersPub",
        "Type": "Brewpub Chain",
        "marker-color": "#00bb00"
      }
    },
    {
      "type": "Feature",
      "geometry": {
        "type": "Point",
        "coordinates": [
          -113.956551,
          51.003284
        ]
      },
      "properties": {
        "Name": "Brewsters Brewing Co. & Restaurant",
        "City": "Calgary",
        "Province": "AB",
        "URL": "http://brewsters.ca/",
        "Facebook": "http://brewsters.ca/",
        "Twitter": "https://twitter.com/BrewstersPub",
        "Type": "Brewpub Chain",
        "marker-color": "#00bb00"
      }
    },
    {
      "type": "Feature",
      "geometry": {
        "type": "Point",
        "coordinates": [
          -114.081131,
          51.042946
        ]
      },
      "properties": {
        "Name": "Brewsters Brewing Co. & Restaurant",
        "City": "Calgary",
        "Province": "AB",
        "URL": "http://brewsters.ca/",
        "Facebook": "http://brewsters.ca/",
        "Twitter": "https://twitter.com/BrewstersPub",
        "Type": "Brewpub Chain",
        "marker-color": "#00bb00"
      }
    },
    {
      "type": "Feature",
      "geometry": {
        "type": "Point",
        "coordinates": [
          -114.199242,
          51.12698
        ]
      },
      "properties": {
        "Name": "Brewsters Brewing Co. & Restaurant",
        "City": "Calgary",
        "Province": "AB",
        "URL": "http://brewsters.ca/",
        "Facebook": "http://brewsters.ca/",
        "Twitter": "https://twitter.com/BrewstersPub",
        "Type": "Brewpub Chain",
        "marker-color": "#00bb00"
      }
    },
    {
      "type": "Feature",
      "geometry": {
        "type": "Point",
        "coordinates": [
          -114.014114,
          51.301121
        ]
      },
      "properties": {
        "Name": "Brewsters Brewing Co. & Restaurant",
        "City": "Airdrie",
        "Province": "AB",
        "URL": "http://brewsters.ca/",
        "Facebook": "http://brewsters.ca/",
        "Twitter": "https://twitter.com/BrewstersPub",
        "Type": "Brewpub Chain",
        "marker-color": "#00bb00"
      }
    },
    {
      "type": "Feature",
      "geometry": {
        "type": "Point",
        "coordinates": [
          -123.008705,
          49.306904
        ]
      },
      "properties": {
        "Name": "Bridge Brewing",
        "City": "North Vancouver",
        "Province": "BC",
        "URL": "http://bridgebrewing.com/",
        "Facebook": "https://www.facebook.com/BridgeBrewingCompany",
        "Twitter": "https://twitter.com/bridgebrewcrew",
        "Type": "Nanobrewery",
        "marker-color": "#ffaa00"
      }
    },
    {
      "type": "Feature",
      "geometry": {
        "type": "Point",
        "coordinates": [
          -107.798874,
          50.286518
        ]
      },
      "properties": {
        "Name": "Buffalo Brew Pub",
        "City": "Swift Current",
        "Province": "SK",
        "Twitter": "https://twitter.com/BuffaloBrewPub1",
        "Type": "Brewpub",
        "marker-color": "#00f"
      }
    },
    {
      "type": "Feature",
      "geometry": {
        "type": "Point",
        "coordinates": [
          -104.612816,
          50.455151
        ]
      },
      "properties": {
        "Name": "Bushwakker Brewing",
        "City": "Regina",
        "Province": "SK,",
        "URL": "http://www.bushwakker.com/",
        "Facebook": "https://www.facebook.com/TheBushwakker",
        "Twitter": "https://twitter.com/thebushwakker",
        "Type": "Brewpub",
        "marker-color": "#00f"
      }
    },
    {
      "type": "Feature",
      "geometry": {
        "type": "Point",
        "coordinates": [
          -119.593758,
          49.482159
        ]
      },
      "properties": {
        "Name": "Cannery Brewing",
        "City": "Penticton",
        "Province": "BC",
        "URL": "http://www.cannerybrewing.com/",
        "Facebook": "https://www.facebook.com/CanneryBrewing",
        "Twitter": "https://twitter.com/CanneryBrewing",
        "Type": "Brewery",
        "marker-color": "#f00"
      }
    },
    {
      "type": "Feature",
      "geometry": {
        "type": "Point",
        "coordinates": [
          -123.370972,
          48.429585
        ]
      },
      "properties": {
        "Name": "Canoe Brewpub",
        "City": "Victoria",
        "Province": "BC",
        "URL": "http://www.canoebrewpub.com/",
        "Facebook": "https://www.facebook.com/canoe.brewpub",
        "Twitter": "https://twitter.com/canoebrewpub",
        "Type": "Brewpub",
        "marker-color": "#00f"
      }
    },
    {
      "type": "Feature",
      "geometry": {
        "type": "Point",
        "coordinates": [
          -122.849167,
          49.187622
        ]
      },
      "properties": {
        "Name": "Central City Brewpub / Red Racer",
        "City": "Surrey",
        "Province": "BC",
        "URL": "http://centralcitybrewing.com/",
        "Facebook": "https://www.facebook.com/CentralCityBrewing",
        "Twitter": "https://twitter.com/CentralCityBrew",
        "Type": "Brewpub",
        "marker-color": "#00f"
      }
    },
    {
      "type": "Feature",
      "geometry": {
        "type": "Point",
        "coordinates": [
          -105.547295,
          50.385284
        ]
      },
      "properties": {
        "Name": "Chillers Brew Pub",
        "City": "Moose Jaw",
        "Province": "SK",
        "URL": "http://www.chillersbrewpub.ca/",
        "Facebook": "https://www.facebook.com/pages/Chillers-Brew-Pub-Eatery-Offsale/196086173793711",
        "Type": "Brewpub",
        "marker-color": "#00f"
      }
    },
    {
      "type": "Feature",
      "geometry": {
        "type": "Point",
        "coordinates": [
          -106.72805,
          52.130924
        ]
      },
      "properties": {
        "Name": "Clark's Crossing Brew Pub",
        "City": "Saskatoon",
        "Province": "SK",
        "Type": "Brewpub",
        "marker-color": "#00f"
      }
    },
    {
      "type": "Feature",
      "geometry": {
        "type": "Point",
        "coordinates": [
          -123.064369,
          49.283951
        ]
      },
      "properties": {
        "Name": "Coal Harbour Brewing Co.",
        "City": "Vancouver",
        "Province": "BC",
        "URL": "http://www.coalharbourbrewing.com/",
        "Facebook": "https://www.facebook.com/CoalHarbourBrewing",
        "Twitter": "https://twitter.com/CoalHarBrew",
        "Type": "Brewery",
        "marker-color": "#f00"
      }
    },
    {
      "type": "Feature",
      "geometry": {
        "type": "Point",
        "coordinates": [
          -123.708435,
          48.777176
        ]
      },
      "properties": {
        "Name": "Craig Street Brewpub",
        "City": "Duncan",
        "Province": "BC",
        "URL": "http://craigstreet.ca/",
        "Facebook": "https://www.facebook.com/csbrewpub",
        "Type": "Brewpub",
        "marker-color": "#00f"
      }
    },
    {
      "type": "Feature",
      "geometry": {
        "type": "Point",
        "coordinates": [
          -119.506195,
          50.881031
        ]
      },
      "properties": {
        "Name": "Crannog Ales",
        "City": "Sorrento",
        "Province": "BC",
        "URL": "http://www.crannogales.com/",
        "Facebook": "https://www.facebook.com/pages/Crann√≥g-Ales/147130382004277",
        "Type": "Brewery",
        "marker-color": "#f00"
      }
    },
    {
      "type": "Feature",
      "geometry": {
        "type": "Point",
        "coordinates": [
          -104.536285,
          50.448151
        ]
      },
      "properties": {
        "Name": "Creekside Pub & Brewery",
        "City": "Regina",
        "Province": "SK",
        "URL": "http://www.creeksidebrewpub.com/",
        "Type": "Brewpub",
        "marker-color": "#00f"
      }
    },
    {
      "type": "Feature",
      "geometry": {
        "type": "Point",
        "coordinates": [
          -122.468857,
          49.097607
        ]
      },
      "properties": {
        "Name": "Dead Frog Brewery",
        "City": "Langley",
        "Province": "BC",
        "URL": "http://www.deadfrog.ca/",
        "Facebook": "https://www.facebook.com/deadfrogbrewery",
        "Twitter": "https://twitter.com/DeadFrogBrewery",
        "Type": "Brewery",
        "marker-color": "#f00"
      }
    },
    {
      "type": "Feature",
      "geometry": {
        "type": "Point",
        "coordinates": [
          -123.011559,
          49.305733
        ]
      },
      "properties": {
        "Name": "Deep Cove Brewing",
        "City": "North Vancouver",
        "Province": "BC",
        "URL": "http://www.deepcovecraft.com/",
        "Facebook": "https://www.facebook.com/DeepCoveBrewers",
        "Twitter": "https://twitter.com/DeepCoveCraft",
        "Type": "Brewery",
        "marker-color": "#f00"
      }
    },
    {
      "type": "Feature",
      "geometry": {
        "type": "Point",
        "coordinates": [
          -123.131378,
          49.269356
        ]
      },
      "properties": {
        "Name": "Dockside Brewing Co.",
        "City": "Vancouver",
        "Province": "BC",
        "URL": "http://www.docksidevancouver.com/brewery",
        "Facebook": "https://www.facebook.com/eatDockside",
        "Twitter": "https://twitter.com/eatDockside",
        "Type": "Brewpub",
        "marker-color": "#00f"
      }
    },
    {
      "type": "Feature",
      "geometry": {
        "type": "Point",
        "coordinates": [
          -123.37384,
          48.436989
        ]
      },
      "properties": {
        "Name": "Driftwood Brewing Company",
        "City": "Victoria",
        "Province": "BC",
        "URL": "http://driftwoodbeer.com/",
        "Facebook": "https://www.facebook.com/driftwoodbeer",
        "Twitter": "https://twitter.com/driftwoodbeer",
        "Type": "Brewery",
        "marker-color": "#f00"
      }
    },
    {
      "type": "Feature",
      "geometry": {
        "type": "Point",
        "coordinates": [
          -97.131187,
          49.86129
        ]
      },
      "properties": {
        "Name": "Farmery Estate Brewery",
        "City": "Winnipeg",
        "Province": "MB",
        "URL": "http://www.farmery.ca/",
        "Facebook": "https://www.facebook.com/farmerybeer",
        "Twitter": "https://twitter.com/FarmeryBrewery",
        "Note": "No address available, retail outlet at Luxalune Gastropub.",
        "Type": "Brewery",
        "marker-color": "#f00"
      }
    },
    {
      "type": "Feature",
      "geometry": {
        "type": "Point",
        "coordinates": [
          -115.045532,
          49.526852
        ]
      },
      "properties": {
        "Name": "Fernie Brewing Co.",
        "City": "Fernie",
        "Province": "BC",
        "URL": "http://www.ferniebrewing.com/",
        "Facebook": "https://www.facebook.com/pages/Fernie-Brewing-Company/170347052983672?rf=241799895874136",
        "Twitter": "https://twitter.com/FernieBrewingCo",
        "Type": "Brewery",
        "marker-color": "#f00"
      }
    },
    {
      "type": "Feature",
      "geometry": {
        "type": "Point",
        "coordinates": [
          -119.550354,
          49.181736
        ]
      },
      "properties": {
        "Name": "Firehall Brewery",
        "City": "Oliver",
        "Province": "BC",
        "URL": "http://www.firehallbrewery.com/",
        "Facebook": "https://www.facebook.com/firehallbrewery",
        "Twitter": "https://twitter.com/FirehallBrewery",
        "Type": "Brewery",
        "marker-color": "#f00"
      }
    },
    {
      "type": "Feature",
      "geometry": {
        "type": "Point",
        "coordinates": [
          -97.207588,
          49.839603
        ]
      },
      "properties": {
        "Name": "Fort Garry Brewing Co.",
        "City": "Winnipeg",
        "Province": "MB",
        "URL": "http://www.fortgarry.com/",
        "Facebook": "https://www.facebook.com/pages/Fort-Garry-Brewing-Company/103771686328808",
        "Twitter": "https://twitter.com/fortgarrybeer",
        "Note": "Wholly-owned by Russell Brewing in BC, some beers produced there.",
        "Type": "Brewery",
        "marker-color": "#f00"
      }
    },
    {
      "type": "Feature",
      "geometry": {
        "type": "Point",
        "coordinates": [
          -123.025398,
          49.136562
        ]
      },
      "properties": {
        "Name": "Four Winds Brewing Co.",
        "City": "Delta",
        "Province": "BC",
        "URL": "http://www.fourwindsbrewing.ca/",
        "Facebook": "https://www.facebook.com/FourWindsBrewingCo",
        "Twitter": "https://twitter.com/FourWindsBrewCo",
        "Type": "Brewery",
        "marker-color": "#f00"
      }
    },
    {
      "type": "Feature",
      "geometry": {
        "type": "Point",
        "coordinates": [
          -106.645538,
          52.159733
        ]
      },
      "properties": {
        "Name": "Fox & Hounds Pub & Brewery",
        "City": "Saskatoon",
        "Province": "SK",
        "Type": "Brewpub",
        "marker-color": "#00f"
      }
    },
    {
      "type": "Feature",
      "geometry": {
        "type": "Point",
        "coordinates": [
          -119.40567,
          49.901222
        ]
      },
      "properties": {
        "Name": "Freddy's Brewpub",
        "AKA": "Mill Creek Brewery",
        "AKA": "McCurdy Bowling Centre",
        "City": "Kelowna",
        "Province": "BC",
        "URL": "http://www.mccurdybowl.com/wp/",
        "Type": "Brewpub",
        "marker-color": "#00f"
      }
    },
    {
      "type": "Feature",
      "geometry": {
        "type": "Point",
        "coordinates": [
          -104.580826,
          50.473492
        ]
      },
      "properties": {
        "Name": "Gaebels Brewhouse & Off Sale",
        "City": "Regina",
        "Province": "SK",
        "Facebook": "https://www.facebook.com/gaebels.brewhouse",
        "Type": "Brewpub",
        "marker-color": "#00f"
      }
    },
    {
      "type": "Feature",
      "geometry": {
        "type": "Point",
        "coordinates": [
          -123.135704,
          49.270523
        ]
      },
      "properties": {
        "Name": "Granville Island Brewing",
        "City": "Vancouver",
        "Province": "BC",
        "URL": "http://gib.ca/",
        "Facebook": "https://www.facebook.com/granvilleislandbrewing",
        "Twitter": "https://twitter.com/itsgoodtobehere",
        "Type": "Brewery",
        "marker-color": "#f00"
      }
    },
    {
      "type": "Feature",
      "geometry": {
        "type": "Point",
        "coordinates": [
          -115.357101,
          51.089252
        ]
      },
      "properties": {
        "Name": "Grizzly Paw Brewing",
        "City": "Canmore",
        "Province": "AB",
        "URL": "http://www.thegrizzlypaw.com/",
        "Facebook": "https://www.facebook.com/pages/The-Grizzly-Paw-Brewing-Company/128231440522255",
        "Twitter": "https://twitter.com/GrizzlyPaw",
        "Type": "Brewpub",
        "marker-color": "#00f"
      }
    },
    {
      "type": "Feature",
      "geometry": {
        "type": "Point",
        "coordinates": [
          -123.497955,
          48.785011
        ]
      },
      "properties": {
        "Name": "Gulf Islands Brewery",
        "AKA": "Saltspring Island Ales",
        "City": "Saltspring",
        "Province": "BC",
        "URL": "http://www.gulfislandsbrewery.com/",
        "Facebook": "https://www.facebook.com/pages/Salt-Spring-Island-Ales/155899623703",
        "Twitter": "https://twitter.com/SaltSpringAles",
        "Type": "Brewery",
        "marker-color": "#f00"
      }
    },
    {
      "type": "Feature",
      "geometry": {
        "type": "Point",
        "coordinates": [
          -97.195229,
          49.926392
        ]
      },
      "properties": {
        "Name": "Half Pints Brewing Co.",
        "City": "Winnipeg",
        "Province": "MB",
        "URL": "http://www.halfpintsbrewing.com/",
        "Facebook": "https://www.facebook.com/HalfPintsBrewCo",
        "Twitter": "https://twitter.com/HalfPintsBrewCo",
        "Type": "Brewery",
        "marker-color": "#f00"
      }
    },
    {
      "type": "Feature",
      "geometry": {
        "type": "Point",
        "coordinates": [
          -113.642281,
          53.622269
        ]
      },
      "properties": {
        "Name": "Hog's Head Brewing Company",
        "City": "St. Albert",
        "Province": "AB",
        "URL": "http://www.hogsheadbrewing.ca/",
        "Facebook": "https://www.facebook.com/HogsHeadBrewingCompany",
        "Type": "Brewery",
        "marker-color": "#f00"
      }
    },
    {
      "type": "Feature",
      "geometry": {
        "type": "Point",
        "coordinates": [
          -106.656601,
          52.118683
        ]
      },
      "properties": {
        "Name": "Hose & Hydrant Brew Pub",
        "City": "Saskatoon",
        "Province": "SK",
        "URL": "http://www.hoseandhydrant.com/",
        "Twitter": "https://twitter.com/HoseBrewPub",
        "Type": "Brewpub",
        "marker-color": "#00f"
      }
    },
    {
      "type": "Feature",
      "geometry": {
        "type": "Point",
        "coordinates": [
          -123.156181,
          49.695362
        ]
      },
      "properties": {
        "Name": "Howe Sound Brewing Co.",
        "City": "Squamish",
        "Province": "BC",
        "URL": "http://www.howesound.com/home.aspx",
        "Facebook": "https://www.facebook.com/HoweSoundBrewing",
        "Twitter": "https://twitter.com/howesoundbeer",
        "Type": "Brewpub",
        "marker-color": "#00f"
      }
    },
    {
      "type": "Feature",
      "geometry": {
        "type": "Point",
        "coordinates": [
          -123.373505,
          48.437077
        ]
      },
      "properties": {
        "Name": "Hoyne Brewing Company",
        "City": "Victoria",
        "Province": "BC",
        "URL": "http://hoynebrewing.ca",
        "Facebook": "https://www.facebook.com/HoyneBrewing",
        "Twitter": "https://twitter.com/hoynebeer",
        "Type": "Brewery",
        "marker-color": "#f00"
      }
    },
    {
      "type": "Feature",
      "geometry": {
        "type": "Point",
        "coordinates": [
          -118.081078,
          52.874615
        ]
      },
      "properties": {
        "Name": "Jasper Brewing Co.",
        "City": "Jasper",
        "Province": "AB",
        "URL": "http://www.jasperbrewingco.ca/",
        "Facebook": "https://www.facebook.com/pages/Jasper-Brewing-Co/168162803222314",
        "Twitter": "https://twitter.com/JasperBrewing",
        "Type": "Brewpub",
        "marker-color": "#00f"
      }
    },
    {
      "type": "Feature",
      "geometry": {
        "type": "Point",
        "coordinates": [
          -104.617912,
          50.477154
        ]
      },
      "properties": {
        "Name": "Last Straw Brew Pub",
        "City": "Regina",
        "Province": "SK",
        "URL": "http://laststrawbrewpub.com/",
        "Twitter": "https://twitter.com/LastStrawRegina",
        "Type": "Brewpub",
        "marker-color": "#00f"
      }
    },
    {
      "type": "Feature",
      "geometry": {
        "type": "Point",
        "coordinates": [
          -123.396423,
          48.435863
        ]
      },
      "properties": {
        "Name": "Lighthouse Brewing Co.",
        "City": "Esquimalt",
        "Province": "BC",
        "URL": "http://www.lighthousebrewing.com/",
        "Facebook": "https://www.facebook.com/LighthouseBeer",
        "Twitter": "https://twitter.com/LighthouseBeer",
        "Type": "Brewery",
        "marker-color": "#f00"
      }
    },
    {
      "type": "Feature",
      "geometry": {
        "type": "Point",
        "coordinates": [
          -124.035538,
          49.224449
        ]
      },
      "properties": {
        "Name": "Longwood Brewpub",
        "City": "Nanaimo",
        "Province": "BC",
        "URL": "http://www.longwoodbrewpub.com/",
        "Facebook": "https://www.facebook.com/longwoodbrewpub",
        "Twitter": "https://twitter.com/LongwoodBrewpub",
        "Type": "Brewpub",
        "marker-color": "#00f"
      }
    },
    {
      "type": "Feature",
      "geometry": {
        "type": "Point",
        "coordinates": [
          -106.627075,
          52.115704
        ]
      },
      "properties": {
        "Name": "Maguires Irish Pub & Brewery",
        "City": "Saskatoon",
        "Province": "SK",
        "URL": "http://www.maguiresbrewpub.com/",
        "Type": "Brewpub",
        "marker-color": "#00f"
      }
    },
    {
      "type": "Feature",
      "geometry": {
        "type": "Point",
        "coordinates": [
          -114.031952,
          51.091972
        ]
      },
      "properties": {
        "Name": "Minhas Microbrewery",
        "City": "Calgary",
        "Province": "AB",
        "URL": "http://minhasbrewery.com/",
        "Facebook": "https://www.facebook.com/MinhasMicroBrew",
        "Twitter": "https://twitter.com/MinhasMicrobrew",
        "Type": "Brewpub",
        "marker-color": "#00f"
      }
    },
    {
      "type": "Feature",
      "geometry": {
        "type": "Point",
        "coordinates": [
          -122.342499,
          49.132454
        ]
      },
      "properties": {
        "Name": "Mission Springs Brewing Co.",
        "City": "Mission",
        "Province": "BC",
        "URL": "http://www.missionspringsbrewingcompany.com/",
        "Twitter": "https://twitter.com/MSBCBREWERY",
        "Type": "Brewpub",
        "marker-color": "#00f"
      }
    },
    {
      "type": "Feature",
      "geometry": {
        "type": "Point",
        "coordinates": [
          -123.375137,
          48.435043
        ]
      },
      "properties": {
        "Name": "Moon Under Water Brewpub",
        "City": "Victoria",
        "Province": "BC",
        "URL": "http://www.moonunderwater.ca/",
        "Facebook": "https://www.facebook.com/pages/The-Moon-Under-Water-Brewery-Pub/115209138522980",
        "Twitter": "https://twitter.com/TheMoonBrewpub",
        "Type": "Brewpub",
        "marker-color": "#00f"
      }
    },
    {
      "type": "Feature",
      "geometry": {
        "type": "Point",
        "coordinates": [
          -118.197952,
          51.000351
        ]
      },
      "properties": {
        "Name": "Mt. Begbie Brewing",
        "City": "Revelstoke",
        "Province": "BC",
        "URL": "http://www.mt-begbie.com/",
        "Type": "Brewery",
        "marker-color": "#f00"
      }
    },
    {
      "type": "Feature",
      "geometry": {
        "type": "Point",
        "coordinates": [
          -117.290245,
          49.488274
        ]
      },
      "properties": {
        "Name": "Nelson Brewing",
        "City": "Nelson",
        "Province": "BC",
        "URL": "http://nelsonbrewing.com/",
        "Facebook": "https://www.facebook.com/pages/Nelson-Brewing-Company/192612907436095",
        "Type": "Brewery",
        "marker-color": "#f00"
      }
    },
    {
      "type": "Feature",
      "geometry": {
        "type": "Point",
        "coordinates": [
          -120.32608,
          50.675915
        ]
      },
      "properties": {
        "Name": "The Noble Pig Brewhouse & Restaurant",
        "City": "Kamloops",
        "Province": "BC",
        "URL": "http://thenoblepig.ca/",
        "Twitter": "https://twitter.com/thenoblepig",
        "Type": "Brewpub",
        "marker-color": "#00f"
      }
    },
    {
      "type": "Feature",
      "geometry": {
        "type": "Point",
        "coordinates": [
          -112.853836,
          53.017887
        ]
      },
      "properties": {
        "Name": "Norsemen Brewing Co.",
        "AKA": "Norseman Inn",
        "AKA2": "The Taproom Bar + Brewery",
        "City": "Camrose",
        "Province": "AB",
        "URL": "http://www.norsemeninn.com/norsemen-brewing-company/",
        "Facebook": "https://www.facebook.com/NorsemenbrewingCo",
        "Type": "Brewpub",
        "marker-color": "#00f"
      }
    },
    {
      "type": "Feature",
      "geometry": {
        "type": "Point",
        "coordinates": [
          -120.37368,
          50.669109
        ]
      },
      "properties": {
        "Name": "Northam Brewery",
        "AKA": "Bowen Island Brewing",
        "AKA2": "Kamloops Brewery",
        "City": "Kamloops",
        "Province": "BC",
        "URL": "http://www.bowenislandbeer.com/",
        "Twitter": "https://twitter.com/bowenislandbeer",
        "Type": "Brewery",
        "marker-color": "#f00"
      }
    },
    {
      "type": "Feature",
      "geometry": {
        "type": "Point",
        "coordinates": [
          -119.268051,
          50.262253
        ]
      },
      "properties": {
        "Name": "Okanagan Spring",
        "City": "Vernon",
        "Province": "BC",
        "URL": "http://www.okspring.com/",
        "Facebook": "https://www.facebook.com/okspring",
        "Twitter": "https://twitter.com/okanaganspring",
        "Type": "Brewery",
        "marker-color": "#f00"
      }
    },
    {
      "type": "Feature",
      "geometry": {
        "type": "Point",
        "coordinates": [
          -121.96244,
          49.104099
        ]
      },
      "properties": {
        "Name": "Old Yale Brewing Co.",
        "City": "Chilliwack",
        "Province": "BC",
        "URL": "http://www.oldyalebrewing.com/",
        "Facebook": "https://www.facebook.com/pages/Old-Yale-Brewing/154945167944820",
        "Twitter": "https://twitter.com/oldyalebrewing",
        "Type": "Brewery",
        "marker-color": "#f00"
      }
    },
    {
      "type": "Feature",
      "geometry": {
        "type": "Point",
        "coordinates": [
          -106.597435,
          52.130196
        ]
      },
      "properties": {
        "Name": "Paddock Wood Brewing Co.",
        "City": "Saskatoon",
        "Province": "SK",
        "URL": "http://www.paddockwood.com/",
        "Facebook": "https://www.facebook.com/paddockwood",
        "Twitter": "https://twitter.com/paddock_wood",
        "Type": "Brewery",
        "marker-color": "#f00"
      }
    },
    {
      "type": "Feature",
      "geometry": {
        "type": "Point",
        "coordinates": [
          -123.064217,
          49.283836
        ]
      },
      "properties": {
        "Name": "Parallel 49 Brewing Co.",
        "City": "Vancouver",
        "Province": "BC",
        "URL": "http://parallel49brewing.com/",
        "Facebook": "https://www.facebook.com/Parallel49Brewing",
        "Twitter": "https://twitter.com/Parallel49Beer",
        "Type": "Brewery",
        "marker-color": "#f00"
      }
    },
    {
      "type": "Feature",
      "geometry": {
        "type": "Point",
        "coordinates": [
          -123.095215,
          49.281399
        ]
      },
      "properties": {
        "Name": "Pat's Pub & Brewhouse",
        "City": "Vancouver",
        "Province": "BC",
        "URL": "http://www.patspub.ca/",
        "Facebook": "https://www.facebook.com/PatsPubandBrewHouse",
        "Twitter": "https://twitter.com/PatsBrewHouse",
        "Type": "Brewpub",
        "marker-color": "#00f"
      }
    },
    {
      "type": "Feature",
      "geometry": {
        "type": "Point",
        "coordinates": [
          -123.367401,
          48.432213
        ]
      },
      "properties": {
        "Name": "Phillips Brewing Co.",
        "City": "Victoria",
        "Province": "BC",
        "URL": "http://phillipsbeer.com/",
        "Facebook": "https://www.facebook.com/pages/Phillips-Brewery-Co/116350548424637",
        "Twitter": "https://twitter.com/phillipsbeer",
        "Type": "Brewery",
        "marker-color": "#f00"
      }
    },
    {
      "type": "Feature",
      "geometry": {
        "type": "Point",
        "coordinates": [
          -123.068481,
          49.284187
        ]
      },
      "properties": {
        "Name": "Powell St. Craft Brewery",
        "City": "Vancouver",
        "Province": "BC",
        "URL": "http://www.powellbeer.com/",
        "Facebook": "https://www.facebook.com/PowellBeer",
        "Twitter": "https://twitter.com/PowellBeer",
        "Type": "Nanobrewery",
        "marker-color": "#ffaa00"
      }
    },
    {
      "type": "Feature",
      "geometry": {
        "type": "Point",
        "coordinates": [
          -123.103294,
          49.267208
        ]
      },
      "properties": {
        "Name": "R&B Brewing Inc.",
        "City": "Vancouver",
        "Province": "BC",
        "URL": "http://www.r-and-b.com/",
        "Facebook": "https://www.facebook.com/RBBrewing",
        "Twitter": "https://twitter.com/RandBBrewing/",
        "Type": "Brewery",
        "marker-color": "#f00"
      }
    },
    {
      "type": "Feature",
      "geometry": {
        "type": "Point",
        "coordinates": [
          -110.46154,
          52.759907
        ]
      },
      "properties": {
        "Name": "Ribstone Creek Brewery",
        "City": "Edgerton",
        "Province": "AB",
        "URL": "http://www.ribstonecreekbrewery.ca/",
        "Facebook": "https://www.facebook.com/RibstoneCreekBrewery",
        "Twitter": "https://twitter.com/RibstoneCreek",
        "Type": "Brewery",
        "marker-color": "#f00"
      }
    },
    {
      "type": "Feature",
      "geometry": {
        "type": "Point",
        "coordinates": [
          -119.473526,
          49.034588
        ]
      },
      "properties": {
        "Name": "Ridge Brewing Co.",
        "AKA": "Westridge Inn",
        "City": "Osoyoos",
        "Province": "BC",
        "URL": "http://www.westridgeinn.com/index.php/restaurant/brewery",
        "Type": "Brewpub",
        "marker-color": "#00f"
      }
    },
    {
      "type": "Feature",
      "geometry": {
        "type": "Point",
        "coordinates": [
          -122.862007,
          49.14732
        ]
      },
      "properties": {
        "Name": "Russell Brewing Co.",
        "City": "Surrey",
        "Province": "BC",
        "URL": "http://www.russellbeer.com/",
        "Facebook": "https://www.facebook.com/Russell.Brewing",
        "Twitter": "https://twitter.com/Russell_Beer",
        "Type": "Brewery",
        "marker-color": "#f00"
      }
    },
    {
      "type": "Feature",
      "geometry": {
        "type": "Point",
        "coordinates": [
          -123.384781,
          48.429356
        ]
      },
      "properties": {
        "Name": "Spinnakers Gastro Brewpub",
        "City": "Victoria",
        "Province": "BC",
        "URL": "http://www.spinnakers.com/",
        "Facebook": "https://www.facebook.com/pages/Spinnakers-Gastro-Brewpub/225719889304",
        "Twitter": "https://twitter.com/Spinnakers",
        "Type": "Brewpub",
        "marker-color": "#00f"
      }
    },
    {
      "type": "Feature",
      "geometry": {
        "type": "Point",
        "coordinates": [
          -123.019897,
          49.273994
        ]
      },
      "properties": {
        "Name": "Steamworks Brewery",
        "City": "Burnaby",
        "Province": "BC",
        "URL": "http://steamworks.com/brewery",
        "Facebook": "https://www.facebook.com/SteamworksBeer",
        "Twitter": "https://twitter.com/Steamworksbeer",
        "Type": "Brewery",
        "marker-color": "#f00"
      }
    },
    {
      "type": "Feature",
      "geometry": {
        "type": "Point",
        "coordinates": [
          -123.111,
          49.284943
        ]
      },
      "properties": {
        "Name": "Steamworks Brewpub",
        "City": "Vancouver",
        "Province": "BC",
        "URL": "http://steamworks.com/brew-pub",
        "Facebook": "https://www.facebook.com/Steamworks",
        "Twitter": "https://twitter.com/steamworkspub",
        "Type": "Brewpub",
        "marker-color": "#00f"
      }
    },
    {
      "type": "Feature",
      "geometry": {
        "type": "Point",
        "coordinates": [
          -123.070175,
          49.282001
        ]
      },
      "properties": {
        "Name": "Storm Brewing",
        "City": "Vancouver",
        "Province": "BC",
        "URL": "http://www.stormbrewing.org/",
        "Facebook": "https://www.facebook.com/StormBrewing",
        "Twitter": "https://twitter.com/StormBrewingVan",
        "Type": "Brewery",
        "marker-color": "#f00"
      }
    },
    {
      "type": "Feature",
      "geometry": {
        "type": "Point",
        "coordinates": [
          -123.369423,
          48.428585
        ]
      },
      "properties": {
        "Name": "Swans Brewpub",
        "AKA": "Swans Suite Hotel",
        "City": "Victoria",
        "Province": "BC",
        "URL": "http://swanshotel.com/brew-pub/brew-pub-home",
        "Facebook": "https://www.facebook.com/swanshotel",
        "Twitter": "https://twitter.com/swansvictoria",
        "Type": "Brewpub",
        "marker-color": "#00f"
      }
    },
    {
      "type": "Feature",
      "geometry": {
        "type": "Point",
        "coordinates": [
          -119.609802,
          49.494282
        ]
      },
      "properties": {
        "Name": "Tin Whistle Brewing Co.",
        "City": "Penticton",
        "Province": "BC",
        "Facebook": "https://www.facebook.com/pages/The-Tin-Whistle-Brewing-Company/135597303286",
        "Twitter": "https://twitter.com/TinWhistleBrew",
        "Type": "Brewery",
        "marker-color": "#f00"
      }
    },
    {
      "type": "Feature",
      "geometry": {
        "type": "Point",
        "coordinates": [
          -125.893066,
          49.138988
        ]
      },
      "properties": {
        "Name": "Tofino Brewing Company",
        "City": "Tofino",
        "Province": "BC",
        "URL": "http://www.tofinobrewingco.com/",
        "Facebook": "https://www.facebook.com/TofinoBrewCo",
        "Twitter": "https://twitter.com/TofinoBrewCo",
        "Type": "Brewery",
        "marker-color": "#f00"
      }
    },
    {
      "type": "Feature",
      "geometry": {
        "type": "Point",
        "coordinates": [
          -114.123657,
          50.981022
        ]
      },
      "properties": {
        "Name": "Toolshed Brewing",
        "City": "Calgary",
        "Province": "AB (no address available)",
        "URL": "http://toolshedbrewing.com/",
        "Facebook": "https://www.facebook.com/ToolShedBrewing",
        "Twitter": "https://twitter.com/toolshedbeer",
        "Note": "Contract brewing at Dead Frog in BC while awaiting permanent space.",
        "Type": "Gypsy Brewery",
        "marker-color": "#dd77ff"
      }
    },
    {
      "type": "Feature",
      "geometry": {
        "type": "Point",
        "coordinates": [
          -124.551201,
          49.874279
        ]
      },
      "properties": {
        "Name": "Townsite Brewing",
        "City": "Powell River",
        "Province": "BC",
        "URL": "http://townsitebrewing.com/",
        "Facebook": "https://www.facebook.com/townsitebrewing",
        "Twitter": "https://twitter.com/townsitebrewing",
        "Type": "Brewery",
        "marker-color": "#f00"
      }
    },
    {
      "type": "Feature",
      "geometry": {
        "type": "Point",
        "coordinates": [
          -119.488342,
          49.896027
        ]
      },
      "properties": {
        "Name": "Tree Brewing",
        "AKA": "Duke's Cider",
        "City": "Kelowna",
        "Province": "BC",
        "URL": "http://www.treebeer.com/",
        "Facebook": "https://www.facebook.com/tree.brewing",
        "Twitter": "https://twitter.com/TreeBrewing",
        "Type": "Brewery",
        "marker-color": "#f00"
      }
    },
    {
      "type": "Feature",
      "geometry": {
        "type": "Point",
        "coordinates": [
          -123.367668,
          48.434753
        ]
      },
      "properties": {
        "Name": "Vancouver Island Brewery",
        "City": "Victoria",
        "Province": "BC",
        "URL": "http://www.vanislandbrewery.com/",
        "Facebook": "https://www.facebook.com/VanIsleBrewery",
        "Twitter": "https://twitter.com/VanIsleBrewery",
        "Type": "Brewery",
        "marker-color": "#f00"
      }
    },
    {
      "type": "Feature",
      "geometry": {
        "type": "Point",
        "coordinates": [
          -114.035042,
          51.009457
        ]
      },
      "properties": {
        "Name": "Village Brewery",
        "City": "Calgary",
        "Province": "AB",
        "URL": "http://www.villagebrewery.com/",
        "Facebook": "https://www.facebook.com/villagebrewery",
        "Twitter": "https://twitter.com/villagebrewery",
        "Type": "Brewery",
        "marker-color": "#f00"
      }
    },
    {
      "type": "Feature",
      "geometry": {
        "type": "Point",
        "coordinates": [
          -123.039948,
          50.087872
        ]
      },
      "properties": {
        "Name": "Whistler Brewing Company",
        "City": "Whistler",
        "Province": "BC",
        "URL": "http://www.whistlerbeer.com/",
        "Facebook": "https://www.facebook.com/whistlerbrewingcompany",
        "Twitter": "https://twitter.com/whistlerbrewing",
        "Type": "Brewery",
        "marker-color": "#f00"
      }
    },
    {
      "type": "Feature",
      "geometry": {
        "type": "Point",
        "coordinates": [
          -114.122932,
          51.014172
        ]
      },
      "properties": {
        "Name": "Wild Rose Brewery",
        "City": "Calgary",
        "Province": "AB",
        "URL": "http://www.wildrosebrewery.com/",
        "Twitter": "https://twitter.com/WildRoseBrewery",
        "Type": "Brewpub",
        "marker-color": "#00f"
      }
    },
    {
      "type": "Feature",
      "geometry": {
        "type": "Point",
        "coordinates": [
          -123.931503,
          49.14185
        ]
      },
      "properties": {
        "Name": "Wolf Brewing Co.",
        "AKA": "formerly Fat Cat Brewing",
        "City": "Nanaimo",
        "Province": "BC",
        "URL": "http://www.wolfbrewingcompany.com/",
        "Facebook": "https://www.facebook.com/Wolf.Nanaimo",
        "Twitter": "https://twitter.com/WolfBrewingComp",
        "Type": "Brewery",
        "marker-color": "#f00"
      }
    },
    {
      "type": "Feature",
      "geometry": {
        "type": "Point",
        "coordinates": [
          -111.3844,
          56.7286
        ]
      },
      "properties": {
        "Name": "Wood Buffalo Brewing Co.",
        "City": "Fort McMurray",
        "Province": "AB",
        "URL": "http://www.woodbuffalobrewingco.ca/",
        "Facebook": "https://www.facebook.com/pages/Wood-Buffalo-Brewing-Co/324777950940866?ref=ts&fref=ts",
        "Twitter": "https://twitter.com/WoodBuffaloBrew",
        "Type": "Brewpub",
        "marker-color": "#00f"
      }
    },
    {
      "type": "Feature",
      "geometry": {
        "type": "Point",
        "coordinates": [
          -123.120918,
          49.27552
        ]
      },
      "properties": {
        "Name": "Yaletown Brewing Company",
        "City": "Vancouver",
        "Province": "BC",
        "URL": "http://www.markjamesgroup.com/yaletown.html",
        "Twitter": "https://twitter.com/YBC_brewing",
        "Type": "Brewpub",
        "marker-color": "#00f"
      }
    },
    {
      "type": "Feature",
      "geometry": {
        "type": "Point",
        "coordinates": [
          -113.500938,
          53.543625
        ]
      },
      "properties": {
        "Name": "Yellowhead Brewery",
        "City": "Edmonton",
        "Province": "AB",
        "URL": "http://www.yellowheadbrewery.com/",
        "Facebook": "https://www.facebook.com/yellowheadbrewery",
        "Twitter": "https://twitter.com/YellowheadBeer",
        "Type": "Brewery",
        "marker-color": "#f00"
      }
    },
    {
      "type": "Feature",
      "geometry": {
        "type": "Point",
        "coordinates": [
          -135.078568,
          60.737785
        ]
      },
      "properties": {
        "Name": "Yukon Brewing Company",
        "City": "Whitehorse",
        "Province": "YT",
        "URL": "http://yukonbeer.com/",
        "Facebook": "https://www.facebook.com/yukonbeer",
        "Twitter": "https://twitter.com/yukonbeer",
        "Type": "Brewery",
        "marker-color": "#f00"
      }
    }


 ]
}