{
  "type": "FeatureCollection",
  "features": [

    {
      "type": "Feature",
      "geometry": {
        "type": "Point",
        "coordinates": [
          -123.9367037,
          49.16473
        ]
      },
      "properties": {
        "Name": "Bastion City Brewing",
        "City": "Nanaimo",
        "Province": "BC",
        "Closed": "1997",
        "Type": "Unknown",
        "marker-color": "#aaa"
      }
    },
    {
      "type": "Feature",
      "geometry": {
        "type": "Point",
        "coordinates": [
          -120.3736733,
          50.6691613
        ]
      },
      "properties": {
        "Name": "Bear Brewing",
        "AKA": "Kamloops Brewing",
        "City": "Kamloops",
        "Province": "BC",
        "Closed": "2005",
        "Type": "Brewery",
        "marker-color": "#f00"
      }
    },
    {
      "type": "Feature",
      "geometry": {
        "type": "Point",
        "coordinates": [
          -73.76682,
          45.55695
        ]
      },
      "properties": {
        "Name": "Braise et Houblon",
        "City": "Laval",
        "Province": "QC",
        "URL": "http://www.braiseethoublon.com/",
        "Facebook": "https://www.facebook.com/BraiseetHoublon",
        "Closed": "2013",
        "Type": "Brewpub",
        "marker-color": "#00f"
      }
    },
    {
      "type": "Feature",
      "geometry": {
        "type": "Point",
        "coordinates": [
          -114.0746,
          51.042652
        ]
      },
      "properties": {
        "Name": "Brew Brothers Brewery",
        "City": "Calgary",
        "Province": "AB",
        "URL": "http://www.brewbrothers.com/",
        "Twitter": "https://twitter.com/brewbrosbrewery",
        "Type": "Nanobrewery",
        "marker-color": "#ffaa00"
      }
    },
    {
      "type": "Feature",
      "geometry": {
        "type": "Point",
        "coordinates": [
          -74.33976,
          45.656
        ]
      },
      "properties": {
        "Name": "Les Brasseurs Qui Fument",
        "City": "Lachute",
        "Province": "QC",
        "URL": "http://www.lesbrasseursquifument.com/",
        "Closed": "Unknown",
        "Type": "Brewpub",
        "marker-color": "#00f"
      }
    },
    {
      "type": "Feature",
      "geometry": {
        "type": "Point",
        "coordinates": [
          -122.9728534,
          49.1607424
        ]
      },
      "properties": {
        "Name": "Coquihalla Brewery",
        "City": "Delta",
        "Province": "BC",
        "Closed": "1998",
        "Type": "Brewery",
        "marker-color": "#f00"
      }
    },
    {
      "type": "Feature",
      "geometry": {
        "type": "Point",
        "coordinates": [
          -123.115379,
          49.276703
        ]
      },
      "properties": {
        "Name": "DIX",
        "City": "Vancouver",
        "Province": "BC",
        "URL": "http://www.markjamesgroup.com/dix.html",
        "Closed": "May 24th, 2010",
        "Type": "Brewpub",
        "marker-color": "#00f"
      }
    },
    {
      "type": "Feature",
      "geometry": {
        "type": "Point",
        "coordinates": [
          -73.4866,
          45.4994
        ]
      },
      "properties": {
        "Name": "Le Fou en Fût",
        "City": "Saint-Hubert",
        "Province": "QC",
        "URL": "http://lefouenfut.com/",
        "Closed": "2008",
        "Type": "Brewpub",
        "marker-color": "#00f"
      }
    },
    {
      "type": "Feature",
      "geometry": {
        "type": "Point",
        "coordinates": [
          -63.573395,
          44.649944
        ]
      },
      "properties": {
        "Name": "Hart & Thistle Gastropub and Brewery",
        "City": "Halifax",
        "Province": "NS",
        "URL": "http://www.hartandthistle.com/",
        "Facebook": "https://www.facebook.com/pages/Hart-Thistle-Gastropub-Brewery/172330196160585",
        "Twitter": "https://twitter.com/HartandThistle",
        "Type": "Brewpub",
        "marker-color": "#00f"
      }
    },
    {
      "type": "Feature",
      "geometry": {
        "type": "Point",
        "coordinates": [
          -123.2734681,
          49.3743591
        ]
      },
      "properties": {
        "Name": "Horseshoe Bay Brewing",
        "City": "West Vancouver",
        "Province": "BC",
        "Closed": "198x",
        "Type": "Brewpub",
        "marker-color": "#00f"
      }
    },
    {
      "type": "Feature",
      "geometry": {
        "type": "Point",
        "coordinates": [
          -123.3668082,
          48.4233093
        ]
      },
      "properties": {
        "Name": "Hugo's Grill and Brewhouse",
        "City": "Victoria",
        "Province": "BC",
        "Closed": "2008",
        "Type": "Brewpub",
        "marker-color": "#00f"
      }
    },
    {
      "type": "Feature",
      "geometry": {
        "type": "Point",
        "coordinates": [
          -115.9863346,
          49.667228
        ]
      },
      "properties": {
        "Name": "Kimberley Brewing",
        "City": "Kimberley",
        "Province": "BC (No address available)",
        "Closed": "1998",
        "Type": "Brewery",
        "marker-color": "#f00"
      }
    },
    {
      "type": "Feature",
      "geometry": {
        "type": "Point",
        "coordinates": [
          -72.1759,
          45.2715
        ]
      },
      "properties": {
        "Name": "Lady of the Lake",
        "City": "Magog",
        "Province": "QC",
        "URL": "http://www.bistrolady.com/",
        "Note": "Former brewpub, no longer brewing",
        "Closed": "Unknown",
        "Type": "Brewpub",
        "marker-color": "#00f"
      }
    },
    {
      "type": "Feature",
      "geometry": {
        "type": "Point",
        "coordinates": [
          -73.78851,
          45.56565
        ]
      },
      "properties": {
        "Name": "Au Maître Brasseur",
        "AKA": "AMB",
        "City": "Laval",
        "Province": "QC",
        "URL": "http://www.aumaitrebrasseur.com/",
        "Closed": "2011",
        "Type": "Brewery",
        "marker-color": "#f00"
      }
    },
    {
      "type": "Feature",
      "geometry": {
        "type": "Point",
        "coordinates": [
          -72.7057,
          46.5895
        ]
      },
      "properties": {
        "Name": "Brasseurs de la Mauricie",
        "City": "Shawnigan",
        "Province": "QC",
        "URL": "http://www.brasseursmauricie.com/",
        "Notes": "Contract brewed at AMB",
        "Closed": "Unknown",
        "Type": "Contract Brewer",
        "marker-color": "#dd77ff"
      }
    },

    {
      "type": "Feature",
      "geometry": {
        "type": "Point",
        "coordinates": [
          -81.0033,
          46.4896
        ]
      },
      "properties": {
        "Name": "Northern Breweries",
        "City": "Sudbury",
        "Province": "ON",
        "URL": "http://en.wikipedia.org/wiki/Northern_Breweries",
        "Closed": "December 2006",
        "Type": "Brewery",
        "marker-color": "#f00"
      }
    },
    {
      "type": "Feature",
      "geometry": {
        "type": "Point",
        "coordinates": [
          -127.157089,
          54.775845
        ]
      },
      "properties": {
        "Name": "Plan B Brewing",
        "City": "Smithers",
        "Province": "BC",
        "URL": "http://www.planbbrewing.com/",
        "Closed": "January 2013",
        "Type": "Nanobrewery",
        "marker-color": "#ffaa00"
      }
    },
    {
      "type": "Feature",
      "geometry": {
        "type": "Point",
        "coordinates": [
          -123.083387,
          49.313617
        ]
      },
      "properties": {
        "Name": "Sailor Hagar's Brew Pub",
        "City": "North Vancouver",
        "Province": "BC",
        "Closed": "200x",
        "Type": "Brewpub",
        "marker-color": "#00f"
      }
    },
    {
      "type": "Feature",
      "geometry": {
        "type": "Point",
        "coordinates": [
          -122.9616659,
          49.1677331
        ]
      },
      "properties": {
        "Name": "Shaftebury Brewing",
        "City": "Delta",
        "Province": "BC",
        "URL": "http://www.shaftebury.com/",
        "Facebook": "https://www.facebook.com/shaftebury",
        "Twitter": "https://twitter.com/ShafteburyBeer",
        "Closed": "1999",
        "Note": "Bought by Okanagan Spring, then Tree Brewing",
        "Type": "Brewery",
        "marker-color": "#f00"
      }
    },
    {
      "type": "Feature",
      "geometry": {
        "type": "Point",
        "coordinates": [
          -124.936676,
          49.688911
        ]
      },
      "properties": {
        "Name": "Surgenor Brewing",
        "City": "Comox",
        "Province": "BC",
        "URL": "http://www.surgenorbrewing.ca/",
        "Closed": "2011",
        "Type": "Brewery",
        "marker-color": "#f00"
      }
    },
    {
      "type": "Feature",
      "geometry": {
        "type": "Point",
        "coordinates": [
          -73.5892,
          45.5213
        ]
      },
      "properties": {
        "Name": "La Taverne Du Sergeant-Recruteur",
        "City": "Montréal",
        "Province": "QC",
        "Closed": "2009",
        "Type": "Brewpub",
        "marker-color": "#00f"
      }
    },
    {
      "type": "Feature",
      "geometry": {
        "type": "Point",
        "coordinates": [
          -123.1504495,
          49.7222399
        ]
      },
      "properties": {
        "Name": "Tall Ship Ale Co.",
        "City": "Squamish",
        "Province": "BC",
        "URL": "http://www.angelfire.com/hi/tallship/",
        "Closed": "2011",
        "Type": "Brewery",
        "marker-color": "#f00"
      }
    },
    {
      "type": "Feature",
      "geometry": {
        "type": "Point",
        "coordinates": [
          -123.103157,
          49.323822
        ]
      },
      "properties": {
        "Name": "Taylor's Crossing",
        "City": "North Vancouver",
        "Province": "BC",
        "URL": "http://www.markjamesgroup.com/taylors_crossing.html",
        "Closed": "December 2011",
        "Type": "Brewpub",
        "marker-color": "#00f"
      }
    },
    {
      "type": "Feature",
      "geometry": {
        "type": "Point",
        "coordinates": [
          -73.8242,
          45.4677
        ]
      },
      "properties": {
        "Name": "Vessels and Barrels",
        "City": "Montréal",
        "Province": "QC",
        "Closed": "2003",
        "Type": "Brewpub",
        "marker-color": "#00f"
      }
    },
    {
      "type": "Feature",
      "geometry": {
        "type": "Point",
        "coordinates": [
          -119.5916551,
          49.4973032
        ]
      },
      "properties": {
        "Name": "Wild Horse Brewing Company",
        "City": "Penticton",
        "Province": "BC",
        "Closed": "1999",
        "Type": "Brewery",
        "marker-color": "#f00"
      }
    }

 ]
}
